[
  {
    "name": "잠실종합운동장 잠실야구장",
    "address": "서울 송파구 올림픽로 25",
    "lat": "37.5161987797456",
    "lon": "127.075940589715"
  },
  {
    "name": "고척스카이돔",
    "address": "서울 구로구 경인로 430",
    "lat": "37.4982125677913",
    "lon": "126.867088741096"
  },
  {
    "name": "대구삼성라이온즈파크",
    "address": "대구 수성구 야구전설로 1",
    "lat": "35.8411289243023",
    "lon": "128.681236372268"
  },
  {
    "name": "광주기아챔피언스필드",
    "address": "광주 북구 서림로 10",
    "lat": "35.1694249627668",
    "lon": "126.888805470329"
  },
  {
    "name": "인천SSG랜더스필드",
    "address": "인천 미추홀구 매소홀로 618",
    "lat": "37.4350819826381",
    "lon": "126.690759830613"
  },
  {
    "name": "한화생명이글스파크",
    "address": "대전 중구 대종로 373",
    "lat": "36.3173370007388",
    "lon": "127.428013823451"
  },
  {
    "name": "창원NC파크",
    "address": "경남 창원시 마산회원구 삼호로 63",
    "lat": "35.2219848625101",
    "lon": "128.579580117268"
  },
  {
    "name": "수원KT위즈파크",
    "address": "경기 수원시 장안구 경수대로 893",
    "lat": "37.2978428909635",
    "lon": "127.011348102567"
  },
  {
    "name": "부산사직종합운동장 사직야구장",
    "address": "부산 동래구 사직로 45",
    "lat": "35.194366802896",
    "lon": "129.059900885997"
  }
]